City_ID,City,Lat,Lng,Max Temp,Humidity,Cloudiness,Wind Speed,Country,Date
0,polyarnyy,69.1989,33.4478,271.68,92,35,1.9,RU,1683398290
1,port-aux-francais,-49.35,70.2167,277.6,58,72,12.67,TF,1683398290
2,puerto armuelles,8.2833,-82.8667,305.14,60,100,4.72,PA,1683398290
3,sitka,57.0531,-135.33,282.09,66,75,2.57,US,1683398290
4,ribeira grande,38.5167,-28.7,291.37,94,75,7.6,PT,1683398119
5,richards bay,-28.783,32.0377,296.74,71,44,4.59,ZA,1683398291
6,ranikhet,29.65,79.4167,286.0,69,0,1.82,IN,1683398291
7,anadyr,64.75,177.4833,268.43,100,40,8.0,RU,1683398291
8,puerto deseado,-47.7503,-65.8938,284.87,68,23,8.77,AR,1683398292
9,albany,42.6001,-73.9662,294.22,38,65,0.89,US,1683398005
10,georgetown,5.4112,100.3354,301.12,84,20,3.6,MY,1683398180
11,turkmenbasy,40.0222,52.9552,285.58,82,0,2.06,TM,1683397995
12,iqaluit,63.7506,-68.5145,273.0,69,40,12.35,CA,1683398293
13,zvishavane,-20.3267,30.0665,290.59,49,0,1.53,ZW,1683398293
14,adamstown,-25.066,-130.1015,295.24,82,100,4.11,PN,1683398293
15,bethel,41.3712,-73.414,295.86,37,40,5.66,US,1683398293
16,nadym,65.5333,72.5167,271.45,88,100,4.97,RU,1683398294
17,west island,-12.1568,96.8225,300.14,94,100,3.09,CC,1683398294
18,samarinda,-0.5,117.15,296.92,99,97,0.91,ID,1683398294
19,hermanus,-34.4187,19.2345,289.15,85,97,3.72,ZA,1683398294
20,petropavlovsk-kamchatsky,53.0452,158.6483,272.48,86,75,3.0,RU,1683398294
21,edinburgh of the seven seas,-37.0676,-12.3116,288.72,74,100,7.77,SH,1683398295
22,dodge city,37.7528,-100.0171,302.71,44,0,5.66,US,1683398295
23,grytviken,-54.2811,-36.5092,277.16,91,100,6.39,GS,1683398295
24,wailua homesteads,22.0669,-159.378,296.9,75,100,8.23,US,1683398295
25,raduzhny,62.0961,77.475,275.08,100,100,2.95,RU,1683398296
26,hawaiian paradise park,19.5933,-154.9731,298.17,88,40,0.0,US,1683398296
27,usogorsk,63.4106,48.6872,270.85,95,100,5.21,RU,1683398296
28,invercargill,-46.4,168.35,281.49,95,18,1.34,NZ,1683398296
29,tromso,69.6496,18.957,278.92,56,0,2.06,NO,1683398097
30,papatowai,-46.5619,169.4708,281.27,95,17,2.2,NZ,1683398297
31,waitangi,-43.9535,-176.5597,286.94,92,100,0.45,NZ,1683398297
32,longyearbyen,78.2186,15.6401,272.06,74,75,6.69,SJ,1683398205
33,montmagny,48.9734,2.3469,293.39,76,0,2.57,FR,1683398298
34,egilsstadir,65.2653,-14.3948,284.1,66,75,5.14,IS,1683398298
35,whitehorse,60.7161,-135.0538,282.65,54,75,5.66,CA,1683398143
36,katghora,22.5,82.55,300.61,36,0,2.12,IN,1683398298
37,amga,60.8953,131.9608,273.96,98,98,2.86,RU,1683398298
38,st. john's,47.5649,-52.7093,279.14,86,100,6.17,CA,1683398164
39,flying fish cove,-10.4217,105.6791,299.97,94,100,3.6,CX,1683398299
40,colchani,-20.3,-66.9333,285.56,22,69,8.01,BO,1683398299
41,iskateley,67.6803,53.1512,264.48,94,9,3.79,RU,1683398299
42,san ramon de la nueva oran,-23.1322,-64.326,295.05,58,100,2.04,AR,1683398300
43,constantia,44.1833,28.65,285.76,66,23,5.57,RO,1683398300
44,hafnarfjordur,64.0671,-21.9377,286.08,58,75,3.6,IS,1683398256
45,tamanrasset,22.785,5.5228,300.87,9,96,4.19,DZ,1683398300
46,port elizabeth,-33.918,25.5701,291.31,87,20,6.17,ZA,1683398300
47,dunedin,-45.8742,170.5036,285.82,99,1,4.02,NZ,1683398301
48,college,64.8569,-147.8028,281.33,55,75,3.09,US,1683398301
49,jamestown,42.097,-79.2353,294.55,37,0,1.34,US,1683398301
50,remire-montjoly,4.9167,-52.2667,303.17,70,75,6.17,GF,1683398301
51,taro,-8.3862,115.28,296.15,95,50,0.45,ID,1683398302
52,yanam,16.7333,82.2167,299.81,88,24,1.36,IN,1683398302
53,suva,-18.1416,178.4415,295.86,94,40,0.0,FJ,1683398269
54,al qubbah,32.7616,22.2424,285.54,89,4,7.46,LY,1683398302
55,ji'an,27.1172,114.9793,291.47,94,100,3.54,CN,1683398302
56,maxixe,-23.8597,35.3472,297.05,78,20,3.6,MZ,1683398303
57,yellowknife,62.456,-114.3525,290.44,39,0,9.77,CA,1683398198
58,fort mcmurray,56.7268,-111.381,291.88,34,0,6.69,CA,1683398190
59,blackmans bay,-43.0167,147.3167,275.78,88,17,2.94,AU,1683398303
60,badr hunayn,23.7829,38.7905,302.47,30,4,0.79,SA,1683398303
61,campbell river,50.0163,-125.2446,284.36,93,100,1.54,CA,1683398304
62,kapuskasing,49.4169,-82.4331,291.2,34,75,3.09,CA,1683398017
63,bloomington,44.8408,-93.2983,290.55,84,100,6.69,US,1683398304
64,ust-nera,64.5667,143.2,265.67,86,99,2.01,RU,1683398304
65,isafjordur,66.0755,-23.124,281.17,81,100,4.12,IS,1683398305
66,saipan,15.1355,145.701,300.54,100,40,6.69,MP,1683398305
67,praia da vitoria,38.7333,-27.0667,293.29,83,75,10.28,PT,1683398305
68,touros,-5.1989,-35.4608,301.59,69,33,6.32,BR,1683398305
69,talara,-4.5772,-81.2719,306.57,55,0,5.14,PE,1683398305
70,puerto natales,-51.7236,-72.4875,284.4,46,40,8.23,CL,1683398131
71,gao,16.6362,1.637,309.31,16,94,3.7,ML,1683398306
72,nurota,40.5614,65.6886,286.12,56,19,2.63,UZ,1683398306
73,calama,-22.4667,-68.9333,295.42,20,0,10.8,CL,1683398306
74,elko,41.0002,-115.5012,280.78,79,100,1.34,US,1683398306
75,bilibino,68.0546,166.4372,268.05,95,100,0.93,RU,1683398307
76,kyzylorda,44.8528,65.5092,288.16,33,0,2.0,KZ,1683398307
77,ola,59.5833,151.2833,272.93,86,10,1.48,RU,1683398307
78,chui,-33.6971,-53.4616,292.63,96,100,4.13,UY,1683398307
79,carnarvon,-24.8667,113.6333,294.69,72,5,4.35,AU,1683398026
80,fortuna,40.5982,-124.1573,287.55,70,13,1.34,US,1683398308
81,nha trang,12.25,109.1833,303.15,82,100,1.83,VN,1683398308
82,geraldton,-28.7667,114.6,290.38,77,100,7.72,AU,1683398308
83,shanwei,22.782,115.3475,299.34,91,100,3.59,CN,1683398308
84,kodiak,57.79,-152.4072,278.88,81,100,2.06,US,1683398309
85,coxim,-18.5067,-54.76,304.09,53,92,1.11,BR,1683398309
86,newcastle,-32.9272,151.7765,286.88,77,0,2.57,AU,1683398309
87,nadi,-17.8,177.4167,297.15,88,75,1.03,FJ,1683398309
88,kone,-21.0595,164.8658,293.16,89,0,1.16,NC,1683398310
89,udachny,66.4167,112.4,267.29,73,98,7.16,RU,1683398310
90,alice springs,-23.7,133.8833,281.9,71,100,5.22,AU,1683398310
91,portland,45.5234,-122.6762,289.71,66,75,1.79,US,1683398097
92,aleksandrovsk-sakhalinskiy,50.8975,142.1561,274.62,63,100,2.91,RU,1683398311
93,perry,37.2506,-83.1999,299.25,35,71,3.2,US,1683398311
94,island harbour,50.724,-1.2758,287.12,95,100,2.68,GB,1683398311
95,susuman,62.7833,148.1667,265.57,88,27,0.34,RU,1683398311
96,newman,37.3138,-121.0208,291.28,64,93,4.02,US,1683398058
97,modimolle,-24.7,28.4,295.77,38,98,2.05,ZA,1683398312
98,sisimiut,66.9395,-53.6735,273.54,88,100,3.67,GL,1683398312
99,carnot,4.9409,15.8665,298.01,77,74,1.63,CF,1683398312
100,utrik,11.2278,169.8474,300.31,78,100,7.91,MH,1683398313
101,champerico,14.3,-91.9167,309.45,62,88,5.42,GT,1683398313
102,ushuaia,-54.8,-68.3,279.96,70,40,9.77,AR,1683398313
103,hamilton,39.1834,-84.5333,298.13,51,100,5.14,US,1683398060
104,dwarka,22.2394,68.9678,300.39,80,5,6.47,IN,1683398313
105,roosevelt,33.9668,-103.4505,298.27,11,100,5.06,US,1683398314
106,vernon,50.2581,-119.2691,286.35,85,100,3.13,CA,1683398314
107,manismata,-2.4667,111.0333,296.76,99,100,0.39,ID,1683398314
108,altay,47.8667,88.1167,279.25,55,100,1.7,CN,1683398314
109,aasiaat,68.7098,-52.8699,272.45,90,100,1.77,GL,1683398314
110,avarua,-21.2078,-159.775,299.18,100,20,0.51,CK,1683398315
111,bocas del toro,9.3333,-82.25,302.23,67,100,5.37,PA,1683398315
112,keflavik,64.0049,-22.5624,286.1,76,75,4.63,IS,1683398315
113,byron bay,-28.65,153.6167,289.23,79,85,3.41,AU,1683397871
114,al mijlad,11.0333,27.7333,311.39,16,29,2.96,SD,1683398316
115,tura,25.5198,90.2201,296.52,60,0,2.49,IN,1683398316
116,lefka,35.1106,32.8506,289.82,79,78,1.86,CY,1683398316
117,ko pha ngan,9.7578,100.0291,300.65,73,100,5.6,TH,1683398316
118,kingscliff,-28.2667,153.5667,289.13,88,95,2.57,AU,1683398316
119,kailua-kona,19.6406,-155.9956,300.1,77,20,3.6,US,1683398317
120,alamosa,37.4695,-105.87,290.14,13,0,7.2,US,1683398317
121,itaituba,-4.2761,-55.9836,303.24,74,75,5.14,BR,1683398317
122,choibalsan,48.0667,114.5,278.68,28,0,4.51,MN,1683398317
123,miri,4.4148,114.0089,299.23,94,40,1.03,MY,1683398295
124,mar del plata,-38.0023,-57.5575,290.98,96,100,7.2,AR,1683398318
125,nambucca heads,-30.65,153.0,291.15,55,100,2.32,AU,1683398318
126,caleta de carquin,-11.0925,-77.6267,297.62,73,21,5.16,PE,1683398318
127,puerto ayora,-0.7393,-90.3518,304.13,90,97,3.13,EC,1683398318
128,ilulissat,69.2167,-51.1,273.16,86,75,2.06,GL,1683398319
129,taltal,-25.4,-70.4833,291.03,68,7,3.31,CL,1683398319
130,rio verde de mato grosso,-18.9181,-54.8442,302.95,54,47,1.41,BR,1683398319
131,pimentel,-6.8367,-79.9342,303.31,54,20,5.66,PE,1683398319
132,oplotnica,46.3878,15.4467,289.29,83,100,1.8,SI,1683398319
133,klyuchi,52.2667,79.1667,288.96,29,0,3.21,RU,1683398320
134,tofol,5.3248,163.0078,301.62,79,82,6.55,FM,1683398320
135,huarmey,-10.0681,-78.1522,298.8,72,1,5.84,PE,1683398320
136,loreto,22.2667,-101.9667,302.36,17,20,2.28,MX,1683398320
137,zaragoza,41.6561,-0.8773,297.4,43,20,7.2,ES,1683398051
138,guerrero negro,27.9769,-114.0611,291.81,56,7,8.19,MX,1683398321
139,bredasdorp,-34.5322,20.0403,288.41,92,74,2.79,ZA,1683398321
140,humaita,-7.5061,-63.0208,301.76,81,36,0.52,BR,1683398321
141,juan griego,11.0817,-63.9655,304.22,55,95,10.29,VE,1683398321
142,hasaki,35.7333,140.8333,295.53,80,100,12.25,JP,1683398321
143,atafu village,-8.5421,-172.5159,302.14,71,0,7.03,TK,1683398322
144,thompson,55.7435,-97.8558,288.24,36,40,2.57,CA,1683398322
145,haliyal,15.3333,74.7667,296.52,79,68,3.1,IN,1683398322
146,muroto-misakicho,33.2833,134.15,293.46,95,100,9.01,JP,1683398322
147,kuanda,56.3161,116.0806,276.96,73,100,0.15,RU,1683398323
148,holualoa,19.6228,-155.9522,298.03,77,20,3.6,US,1683398323
149,puerto baquerizo moreno,-0.9,-89.6,301.7,84,40,7.2,EC,1683398323
150,miyaly,48.8844,53.7836,290.15,28,0,3.82,KZ,1683398323
151,rabaul,-4.1967,152.1721,299.84,82,98,3.86,PG,1683398323
152,akureyri,65.6835,-18.0878,284.11,62,20,5.14,IS,1683398324
153,sotnikovskoye,45.0039,43.7772,288.47,70,95,4.92,RU,1683398324
154,saudarkrokur,65.7461,-19.6394,280.76,77,45,1.82,IS,1683398324
155,bredy,52.4153,60.3411,288.96,35,99,3.64,RU,1683398324
156,mutoko,-17.397,32.2268,287.76,54,3,1.61,ZW,1683398325
157,east london,-33.0153,27.9116,292.67,82,0,4.63,ZA,1683398325
158,coari,-4.085,-63.1414,301.24,86,89,1.64,BR,1683398325
159,olenino,56.2092,33.4889,272.05,61,9,2.11,RU,1683398325
160,zeya,53.75,127.2667,277.29,80,13,0.66,RU,1683398326
161,kalmunai,7.4167,81.8167,299.35,82,100,1.03,LK,1683398326
162,tidjikja,18.5564,-11.4271,308.39,10,97,6.3,MR,1683398326
163,el jadid,33.2549,-8.506,292.55,82,2,5.92,MA,1683398326
164,bulle,46.6195,7.0567,293.4,87,100,1.56,CH,1683398326
165,shahrisabz,39.0578,66.8342,284.54,72,11,2.25,UZ,1683398327
166,argo,37.6333,22.7333,290.81,58,64,2.14,GR,1683398327
167,khor,47.8861,134.9464,277.84,71,45,2.44,RU,1683398327
168,aswan,24.0934,32.907,301.1,17,0,5.09,EG,1683398328
169,vorgashor,67.5833,63.95,260.72,97,100,2.72,RU,1683398328
170,nkove,-7.95,30.85,296.47,74,3,1.59,TZ,1683398328
171,clanton,32.8387,-86.6294,301.36,60,99,0.89,US,1683398328
172,victoria point,-27.5833,153.3,289.23,91,84,1.87,AU,1683398328
173,luderitz,-26.6481,15.1594,286.34,89,0,4.36,NA,1683398329
174,dezhou,37.4486,116.2925,286.99,30,100,3.09,CN,1683398329
175,outjo,-20.1167,16.15,295.03,31,37,2.7,NA,1683398329
176,kapa'a,22.0752,-159.319,297.65,74,100,8.23,US,1683398330
177,sivrihisar,39.4504,31.5341,283.62,84,99,2.26,TR,1683398330
178,saint-joseph,-21.3667,55.6167,296.74,81,20,5.15,RE,1683398330
179,port de pollenca,39.9075,3.0814,298.17,67,100,2.12,ES,1683398330
180,belyy yar,53.6039,91.3903,279.09,56,10,1.0,RU,1683398330
181,tazovsky,67.4667,78.7,260.08,97,81,3.13,RU,1683398331
182,vilyuchinsk,52.9306,158.4028,273.3,82,29,3.55,RU,1683398331
183,semey,50.4111,80.2275,288.36,50,0,2.99,KZ,1683398172
184,bullsbrook,-31.6667,116.0,289.21,72,100,5.66,AU,1683398331
185,stanley,54.868,-1.6985,287.45,82,40,3.09,GB,1683398331
186,greymouth,-42.4667,171.2,287.78,98,100,2.84,NZ,1683398332
187,nova sintra,14.8667,-24.7167,292.91,81,7,11.79,CV,1683398332
188,sinop,41.7711,34.8709,283.31,83,100,0.53,TR,1683398332
189,belmonte,-15.8631,-38.8828,299.97,70,1,5.48,BR,1683398333
190,necochea,-38.5473,-58.7368,287.36,96,100,3.54,AR,1683398168
191,pasni,25.2631,63.471,300.61,73,0,5.09,PK,1683398333
192,rouissat,31.9243,5.3502,307.46,11,100,4.9,DZ,1683398333
193,dampit,-8.2116,112.7493,294.99,98,85,1.09,ID,1683398333
194,santa marta,11.2408,-74.199,305.18,66,40,2.06,CO,1683398334
195,dudinka,69.4058,86.1778,252.18,100,100,0.55,RU,1683398264
196,chonchi,-42.6128,-73.8092,285.99,91,99,1.73,CL,1683398334
197,wuyang,31.9925,116.2472,288.07,65,100,4.15,CN,1683398334
198,nuuk,64.1835,-51.7216,273.49,86,75,8.75,GL,1683398334
199,qaqortoq,60.7167,-46.0333,276.35,75,52,2.96,GL,1683398335
200,codrington,-38.2667,141.9667,281.61,66,42,5.79,AU,1683398335
201,margaret river,-33.95,115.0667,288.76,56,100,6.0,AU,1683398335
202,zaozersk,69.4005,32.4476,270.44,92,33,1.85,RU,1683398335
203,midvagur,62.0511,-7.1939,281.61,93,100,6.17,FO,1683398336
204,timimoun,29.2639,0.231,309.57,6,100,3.64,DZ,1683398336
205,badger,64.8,-147.5333,281.29,49,75,3.09,US,1683398336
206,enewetak,11.3474,162.3373,300.36,82,97,8.17,MH,1683398336
207,wewak,-3.5534,143.6268,300.3,85,100,2.19,PG,1683398336
208,ajaigarh,24.9,80.2667,305.17,25,0,0.88,IN,1683398337
209,banlung,13.7468,107.0045,298.82,72,28,1.1,KH,1683398337
210,lihue,21.9789,-159.3672,297.24,74,100,8.23,US,1683398337
211,petauke,-14.2426,31.3253,288.71,60,0,2.07,ZM,1683398337
212,malvan,16.0667,73.4667,300.99,70,97,3.67,IN,1683398338
213,yarmouth,41.7057,-70.2286,296.56,38,0,4.12,US,1683398338
214,huayin,34.5675,110.0921,285.85,91,100,2.63,CN,1683398338
215,talnakh,69.4865,88.3972,254.55,98,79,1.33,RU,1683398338
216,norilsk,69.3535,88.2027,254.48,99,57,0.94,RU,1683398338
217,pitimbu,-7.4706,-34.8086,303.48,70,8,4.79,BR,1683398339
218,namibe,-15.1961,12.1522,295.82,79,21,5.35,AO,1683398339
219,hinesville,31.8469,-81.5959,296.0,76,75,0.0,US,1683398339
220,sitangkai,4.6628,119.3928,301.66,77,100,2.9,PH,1683398339
221,castillos,-34.1667,-53.8333,292.21,98,100,4.63,UY,1683398340
222,coquimbo,-29.9533,-71.3436,290.0,63,0,5.14,CL,1683398340
223,haiku-pauwela,20.9219,-156.3051,297.62,78,40,8.23,US,1683398340
224,bamboo flat,11.7,92.7167,301.98,76,14,2.98,IN,1683398340
225,qingdao,36.0986,120.3719,286.93,77,0,4.0,CN,1683398341
226,coronel dorrego,-38.7187,-61.2873,288.22,50,100,3.54,AR,1683398341
227,faya-largeau,17.9257,19.1043,304.32,15,0,5.11,TD,1683398341
228,shenjiamen,29.9576,122.298,288.26,96,100,7.11,CN,1683398341
229,bojnurd,37.4747,57.329,284.12,62,0,2.06,IR,1683398341
230,uturoa,-16.7333,-151.4333,300.95,77,100,8.81,PF,1683398342
231,crane,31.3974,-102.3501,304.27,18,89,2.36,US,1683398342
232,ad dabbah,18.05,30.95,306.91,12,100,9.06,SD,1683398342
233,sainyabuli,19.25,101.75,299.23,57,0,0.44,LA,1683398343
234,beira,-19.8436,34.8389,298.2,78,0,3.09,MZ,1683398343
235,poquoson,37.1224,-76.3458,297.22,49,20,4.12,US,1683398343
236,hobyo,5.3505,48.5268,301.29,81,100,9.53,SO,1683398343
237,kotel'nikovo,47.6317,43.1461,288.54,78,100,5.95,RU,1683398343
238,olonkinbyen,70.9221,-8.7187,272.46,98,100,4.32,SJ,1683398344
239,severo-yeniseyskiy,60.3725,93.0408,270.17,98,91,1.62,RU,1683398344
240,dzuunmod,48.2199,97.3744,276.71,57,100,0.99,MN,1683398344
241,la'ie,21.6477,-157.9253,298.4,73,100,2.24,US,1683398344
242,salmon arm,50.6998,-119.3024,285.71,94,100,0.51,CA,1683398216
243,tiksi,71.6872,128.8694,256.33,100,95,2.26,RU,1683398345
244,mount pearl,47.5166,-52.7813,278.68,85,100,6.17,CA,1683398345
245,sudak,44.85,34.9667,287.48,80,100,5.05,UA,1683398345
246,santa ana,33.7456,-117.8678,294.57,57,75,4.12,US,1683398312
247,malango,-2.9627,119.9001,292.8,98,69,0.88,ID,1683398346
248,laurel,39.0993,-76.8483,297.45,41,40,4.12,US,1683398050
249,neiafu,-18.65,-173.9833,298.53,88,20,0.0,TO,1683398346
250,krivosheino,57.3431,83.9261,284.35,93,31,2.41,RU,1683398346
251,puerto rico,-26.796,-55.024,299.69,96,100,1.09,AR,1683398347
252,shendi,16.6915,33.4341,308.88,6,11,4.61,SD,1683398347
253,uyar,55.81,94.3153,280.8,95,59,1.22,RU,1683398347
254,ancud,-41.8697,-73.8203,285.51,91,100,3.47,CL,1683398347
255,tinajo,29.0788,-13.7081,295.64,64,75,9.77,ES,1683398347
256,olyokminsk,60.3736,120.4264,276.39,97,100,4.71,RU,1683398348
257,katsuura,35.1333,140.3,293.53,87,100,13.53,JP,1683398348
258,jieshi,22.8134,115.8257,299.1,91,100,4.36,CN,1683398348
259,richmond,37.5538,-77.4603,297.17,45,75,3.09,US,1683398065
260,maracaju,-21.6144,-55.1683,300.53,63,100,2.03,BR,1683398349
261,tukzar,35.9483,66.4213,284.83,61,5,1.39,AF,1683398349
262,saldanha,-33.0117,17.9442,290.18,88,13,2.4,ZA,1683398349
263,iola,37.9245,-95.4,305.59,48,0,8.23,US,1683398138
264,isangel,-19.55,169.2667,296.21,94,20,0.0,VU,1683398350
265,nantucket,41.2835,-70.0995,295.23,48,0,5.14,US,1683398322
266,kavaratti,10.5669,72.642,301.86,67,97,3.78,IN,1683398350
267,maun,-19.9833,23.4167,295.05,27,3,1.94,BW,1683398350
268,sandnessjoen,66.0217,12.6316,282.21,40,0,1.03,NO,1683398350
269,willemstad,12.1084,-68.9335,303.1,66,75,8.23,CW,1683398165
270,penzance,50.1186,-5.5371,287.53,82,89,4.15,GB,1683398351
271,bangui,4.3612,18.555,302.25,70,20,2.06,CF,1683398351
272,lazaro cardenas,17.9583,-102.2,304.49,54,5,5.65,MX,1683398351
273,guaruja,-23.9931,-46.2564,301.07,69,20,3.6,BR,1683398331
274,broome,42.2506,-75.833,293.17,43,40,4.12,US,1683398352
275,lebu,-37.6167,-73.65,287.39,80,7,6.57,CL,1683398352
276,atherton,53.5237,-2.4935,288.65,86,98,2.24,GB,1683398103
277,ticul,20.4,-89.5333,312.86,18,86,3.05,MX,1683398352
278,pandan,14.0453,124.1694,299.16,88,10,2.98,PH,1683398352
279,port saint john's,-31.6229,29.5448,293.36,84,100,1.85,ZA,1683398353
280,port mathurin,-19.6833,63.4167,299.34,73,4,8.38,MU,1683398353
281,port-vila,-17.7338,168.3219,295.93,94,40,1.03,VU,1683398353
282,carahue,-38.7,-73.1667,289.92,63,5,2.46,CL,1683398353
283,palikir - national government center,6.9248,158.1611,301.16,75,100,2.93,FM,1683398353
284,port macquarie,-31.4333,152.9167,284.76,73,100,1.79,AU,1683398354
285,palmer,42.1584,-72.3287,296.53,31,40,2.24,US,1683398354
286,copiapo,-27.3667,-70.3333,289.98,34,0,3.35,CL,1683398354
287,thayetmyo,19.3167,95.1833,303.0,58,5,2.61,MM,1683398354
288,betanzos,43.2804,-8.2147,293.51,78,20,4.12,ES,1683398355
289,hithadhoo,-0.6,73.0833,301.58,75,100,8.06,MV,1683398355
290,santiago de cao,-7.9589,-79.2392,299.22,73,88,6.17,PE,1683398355
291,roma,43.2128,-75.4557,293.0,46,75,5.14,US,1683398166
292,mossel bay,-34.1831,22.146,287.11,83,2,2.83,ZA,1683398356
293,taroa,8.7058,171.2275,300.94,82,93,7.45,MH,1683398356
294,altai,46.3722,96.2583,274.0,86,100,6.78,MN,1683398356
295,hilo,19.7297,-155.09,298.29,84,40,0.89,US,1683398152
296,paredon,16.0333,-93.8667,306.47,59,37,5.91,MX,1683398357
297,amahai,-3.3333,128.9167,299.82,87,66,1.56,ID,1683398357
298,puerto leguizamo,-0.1934,-74.7819,301.89,76,50,0.79,CO,1683398357
299,lorengau,-2.0226,147.2712,300.68,79,24,2.1,PG,1683398357
300,kushiro,42.975,144.3747,275.56,87,100,2.42,JP,1683398358
301,sabang,5.8933,95.3214,300.96,80,100,8.95,ID,1683398358
302,andalgala,-27.5819,-66.3165,289.22,50,37,2.56,AR,1683398358
303,iquitos,-3.7481,-73.2472,298.17,94,100,3.09,PE,1683398358
304,costa rica,-23.4167,-54.65,299.31,75,100,2.52,BR,1683398359
305,ed damer,17.5928,33.9592,307.84,6,28,5.07,SD,1683398359
306,toccoa,34.5773,-83.3324,293.95,63,35,2.67,US,1683398359
307,zdolbuniv,50.5206,26.2425,280.95,58,100,7.73,UA,1683398359
308,saint john's,47.5649,-52.7093,279.14,86,100,6.17,CA,1683398290
309,bikenibeu village,1.3673,173.1241,300.13,89,75,2.57,KI,1683398360
310,mejit,10.2753,170.8646,300.54,80,100,8.13,MH,1683398360
311,ueckermunde,53.7379,14.0447,282.18,87,100,4.12,DE,1683398361
312,nouadhibou,20.931,-17.0347,295.14,64,0,11.32,MR,1683398361
313,kombissiri,12.0656,-1.3375,312.14,24,64,5.05,BF,1683398361
314,ingeniero jacobacci,-41.3427,-69.5448,289.9,32,31,1.43,AR,1683398361
315,yunyang,33.4474,112.7142,286.98,57,100,4.43,CN,1683398361
316,visakhapatnam,17.69,83.2093,301.09,74,75,1.03,IN,1683398362
317,canon city,38.441,-105.2424,295.94,16,0,6.17,US,1683398162
318,nanao,37.05,136.9667,289.42,97,100,4.52,JP,1683398355
319,lompoc,34.6391,-120.4579,294.27,63,75,4.12,US,1683398280
320,queenstown,-31.8976,26.8753,289.04,65,81,2.14,ZA,1683398362
321,ta`u,-14.2336,-169.5144,301.06,72,2,4.75,AS,1683398363
322,shivpuri,25.4333,77.65,302.32,33,56,0.36,IN,1683398363
323,bandar lampung,-5.4254,105.258,297.8,91,100,2.08,ID,1683398363
324,richfield,44.8833,-93.283,290.47,84,100,6.69,US,1683398363
325,port alfred,-33.5906,26.891,289.92,91,28,1.34,ZA,1683398363
326,sola,-13.8833,167.55,298.52,94,75,0.0,VU,1683398364
327,ceeldheer,3.8488,47.1806,300.86,82,100,6.71,SO,1683398364
328,tshabong,-26.05,22.45,297.66,26,85,2.5,BW,1683398364
329,myeik,12.4333,98.6,301.75,79,100,2.74,MM,1683398364
330,weno,7.4515,151.8468,299.12,94,100,0.0,FM,1683398365
331,ganghwa-gun,37.7472,126.4856,285.16,63,100,3.94,KR,1683398365
332,moranbah,-22.0016,148.0466,290.71,92,97,3.26,AU,1683398365
333,durban,-29.8579,31.0292,300.66,70,100,8.8,ZA,1683398311
334,sao joao da barra,-21.6403,-41.0511,301.2,72,13,4.45,BR,1683398144
335,mitu,1.1983,-70.1733,305.88,48,100,1.39,CO,1683398366
336,babolsar,36.7025,52.6576,290.33,73,0,3.85,IR,1683398366
337,alagoinhas,-12.1356,-38.4192,300.14,71,30,3.37,BR,1683398366
338,new norfolk,-42.7826,147.0587,276.44,79,5,1.12,AU,1683398366
339,dieppe,49.75,1.1667,289.44,84,100,4.37,FR,1683398118
340,riachao das neves,-11.7461,-44.91,307.44,26,11,2.72,BR,1683398367
341,nar'yan-mar,67.6713,53.087,264.56,94,9,3.81,RU,1683398367
342,porto novo,6.4965,2.6036,301.05,76,100,3.12,BJ,1683398367
343,shimokizukuri,40.8061,140.3861,282.01,84,100,3.34,JP,1683398355
344,walvis bay,-22.9575,14.5053,288.68,82,0,1.54,NA,1683398368
345,severnoye,56.3491,78.3619,287.03,35,24,1.74,RU,1683398368
346,sorong,-0.8833,131.25,299.57,87,65,2.18,ID,1683398368
347,temerluh,3.4506,102.4176,298.14,98,100,0.63,MY,1683398368
348,shalqar,47.8333,59.6,290.38,21,100,2.65,KZ,1683398368
349,cohasset,42.2418,-70.8037,297.36,30,0,3.09,US,1683398369
350,tobelo,1.7284,128.0095,299.93,83,80,1.3,ID,1683398369
351,xam nua,20.4197,104.0439,296.88,57,0,1.51,LA,1683398369
352,tra vinh,9.9347,106.3453,301.0,75,85,2.03,VN,1683398369
353,revda,56.801,59.9303,285.35,49,40,3.12,RU,1683398370
354,pacific grove,36.6177,-121.9166,290.6,71,40,5.14,US,1683398370
355,qusmuryn,52.4503,64.6311,290.33,33,6,3.98,KZ,1683398370
356,ust-tsilma,65.441,52.1498,268.8,94,95,4.57,RU,1683398370
357,kerikeri,-35.2268,173.9474,290.76,95,100,3.57,NZ,1683398370
358,artesia,33.8658,-118.0831,294.53,62,40,4.12,US,1683398371
359,yanahuanca,-10.5167,-76.4986,283.78,60,91,3.63,PE,1683398371
360,westport,41.1415,-73.3579,296.08,35,20,4.12,US,1683398210
361,bodo,67.28,14.405,280.17,39,0,1.03,NO,1683398371
362,tolanaro,-25.0319,46.9987,295.19,88,75,4.12,MG,1683398372
363,mount gambier,-37.8333,140.7667,280.38,78,100,2.01,AU,1683398372
364,gulf shores,30.246,-87.7008,299.42,67,94,1.79,US,1683398152
365,antonio enes,-16.2325,39.9086,297.75,66,83,3.37,MZ,1683398372
366,stony plain,53.5334,-114.0021,291.9,40,21,3.13,CA,1683398239
367,rawson,-43.3002,-65.1023,294.86,33,4,4.55,AR,1683398373
368,lakatoro,-16.0999,167.4164,298.47,85,2,2.35,VU,1683398373
369,ulsteinvik,62.3432,5.8487,285.65,58,85,0.45,NO,1683398373
370,chifeng,42.2683,118.9636,282.44,37,2,3.08,CN,1683398327
371,frutigen,46.5878,7.6475,293.14,86,99,0.71,CH,1683398373
372,el matama,16.7095,33.3565,308.95,6,11,4.7,SD,1683398374
373,bee cave,30.3085,-97.945,304.81,70,100,4.47,US,1683398374
374,mastung,29.7994,66.845,289.86,15,0,5.67,PK,1683398374
375,pithoro,25.5167,69.3833,305.09,40,39,7.8,PK,1683398374
376,khandyga,62.6667,135.6,274.64,96,100,4.16,RU,1683398375
377,gremda,34.75,10.7833,294.26,64,40,3.6,TN,1683398375
378,harper,4.375,-7.7169,300.35,81,79,3.64,LR,1683398375
379,chibougamau,49.9168,-74.3659,291.94,26,20,5.66,CA,1683398375
380,chabahar,25.2919,60.643,301.18,70,3,3.15,IR,1683398375
381,camocim,-2.9022,-40.8411,302.85,72,13,3.68,BR,1683398376
382,patong,7.8961,98.2966,304.27,99,100,4.58,TH,1683398376
383,mangrol,21.1167,70.1167,300.62,78,4,5.75,IN,1683398376
384,grand-bassam,5.2118,-3.7388,302.13,79,13,3.21,CI,1683398376
385,morondava,-20.2833,44.2833,296.89,79,0,5.43,MG,1683398377
386,vuokatti,64.146,28.2697,278.07,86,97,0.45,FI,1683398377
387,ulaangom,49.9811,92.0667,281.13,24,100,1.73,MN,1683398377
388,fauske,67.2588,15.3918,280.17,58,75,0.07,NO,1683398377
389,yuzhno-kurilsk,44.0306,145.8556,274.55,85,100,2.84,RU,1683398378
390,aykhal,66.0,111.5,264.37,94,100,6.54,RU,1683398378
391,bulgan,48.8125,103.5347,279.69,36,100,1.02,MN,1683398378
392,port augusta,-32.5,137.7667,282.56,67,6,2.43,AU,1683398378
393,anyksciai,55.5256,25.1026,275.19,60,6,3.68,LT,1683398379
394,uozu,36.8,137.4,287.93,98,100,3.62,JP,1683398379
395,usinsk,65.9939,57.5281,269.15,83,100,8.78,RU,1683398379
396,hadibu,12.65,54.0333,301.97,77,1,0.82,YE,1683398379
397,namie,37.4833,141.0,292.44,93,100,6.73,JP,1683398380
398,camana,-16.6228,-72.7111,294.58,76,99,4.0,PE,1683398380
399,topeka,39.0483,-95.678,305.66,54,0,7.72,US,1683398380
400,verkhniy mamon,50.1635,40.3832,280.51,61,99,6.71,RU,1683398380
401,tenosique,17.4833,-91.4333,312.21,23,100,5.9,MX,1683398381
402,tlapa de comonfort,17.55,-98.55,308.03,23,18,1.91,MX,1683398250
403,howrah,22.5892,88.3103,303.15,74,20,3.6,IN,1683398207
404,belel,7.05,14.4333,292.33,75,50,0.77,CM,1683398381
405,conceicao das alagoas,-19.9147,-48.3883,304.03,45,82,1.77,BR,1683398382
406,darwin,-12.4611,130.8418,299.14,89,6,1.03,AU,1683398382
407,vadso,70.0744,29.7487,278.64,65,50,0.0,NO,1683398382
408,colares,38.7992,-9.4469,294.7,75,20,5.81,PT,1683398382
409,kingston,17.997,-76.7936,303.68,80,40,9.77,JM,1683398348
410,nizhniy odes,63.6445,54.856,273.24,97,100,5.57,RU,1683398383
411,griffith,41.5284,-87.4237,295.64,60,75,6.69,US,1683398383
412,kendari,-3.945,122.4989,297.34,94,93,1.52,ID,1683398383
413,fort st. john,56.2499,-120.8529,290.09,34,100,11.32,CA,1683398241
414,murzuq,25.9155,13.9184,298.13,16,0,3.3,LY,1683398384
415,francistown,-21.17,27.5079,294.06,35,0,4.4,BW,1683398384
416,hovd,48.0056,91.6419,276.8,79,100,1.79,MN,1683398384
417,parli vaijnath,18.85,76.5333,303.85,42,100,1.86,IN,1683398384
418,souillac,-20.5167,57.5167,299.36,78,75,4.12,MU,1683398385
419,qarshi,38.8667,65.8,289.05,63,0,3.09,UZ,1683398385
420,inarajan village,13.2736,144.7484,300.69,92,100,4.35,GU,1683398385
421,kharp,66.8014,65.8081,264.63,92,99,2.56,RU,1683398385
422,bedele,8.456,36.353,288.01,91,100,0.71,ET,1683398385
423,phillaur,31.0292,75.7842,295.28,44,0,3.72,IN,1683398386
424,chateaudun,48.0833,1.3333,293.23,96,100,3.87,FR,1683398386
425,meulaboh,4.1363,96.1285,298.25,93,100,2.87,ID,1683398386
426,mao,39.8885,4.2658,292.46,77,0,4.12,ES,1683398386
427,chachapoyas,-6.2317,-77.869,290.8,83,99,0.98,PE,1683398386
428,mglin,53.0591,32.8475,274.29,56,20,2.56,RU,1683398387
429,arraial do cabo,-22.9661,-42.0278,300.13,65,20,5.14,BR,1683398387
430,hammerfest,70.6634,23.6821,276.4,65,0,3.6,NO,1683398247
431,torredembarra,41.1451,1.3986,296.41,74,0,0.51,ES,1683398387
432,tsiombe,-25.3,45.4833,293.62,89,1,1.58,MG,1683398388
433,bozkurt,41.9577,34.0109,286.81,70,100,0.1,TR,1683398388
434,oriximina,-1.7656,-55.8661,302.6,74,100,0.61,BR,1683398388
435,ilgin,38.2792,31.9139,283.79,85,100,2.04,TR,1683398389
436,morden,49.1919,-98.1014,286.53,62,100,5.66,CA,1683398163
437,itoman,26.1247,127.6694,298.37,88,75,7.2,JP,1683398389
438,happy valley-goose bay,53.3168,-60.3315,287.32,23,75,1.54,CA,1683398389
439,pangoa,-12.1167,-73.0,302.14,54,50,1.75,PE,1683398390
440,quellon,-43.1167,-73.6167,285.29,87,100,5.66,CL,1683398390
441,cabo san lucas,22.8909,-109.9124,302.93,52,40,5.66,MX,1683398149
442,santa cruz,-17.8,-63.1667,291.85,88,75,4.12,BO,1683398391
443,chinde,26.8418,88.0763,291.0,48,0,2.55,NP,1683398391
444,baiyin,36.5583,104.2081,282.24,67,100,5.77,CN,1683398391
445,soeng sang,14.4264,102.4606,300.98,70,99,2.66,TH,1683398391
446,tashtagol,52.7657,87.8894,281.88,78,5,1.36,RU,1683398392
447,fort bragg,35.139,-79.006,299.54,37,75,1.54,US,1683398392
448,qarah bagh,34.9402,61.7759,287.86,34,0,1.75,AF,1683398392
449,pisco,-13.7,-76.2167,297.18,73,100,2.06,PE,1683398392
450,saint-berthevin,48.0667,-0.8333,289.13,94,75,2.06,FR,1683398393
451,knyaze-volkonskoye,48.4642,135.4567,277.34,83,98,2.27,RU,1683398393
452,santo antonio da platina,-23.295,-50.0772,299.2,67,7,1.56,BR,1683398393
453,anna regina,7.2644,-58.5077,301.76,67,92,4.46,GY,1683398393
454,shangrao,28.4532,117.9686,292.61,97,100,0.81,CN,1683398394
455,san antonio de pale,-1.4014,5.6325,301.01,75,100,2.47,GQ,1683398394
456,smithers,54.7804,-127.1743,282.33,87,75,2.06,CA,1683398109
457,gebeit,21.0667,36.3167,301.14,21,53,2.47,SD,1683398394
458,mount isa,-20.7333,139.5,293.02,28,99,9.26,AU,1683398394
459,yinchuan,38.4681,106.2731,285.92,57,100,3.0,CN,1683398351
460,la passe,45.5549,-0.8967,295.28,90,7,4.38,FR,1683398395
461,bangkalan,-7.0455,112.7351,299.12,88,95,1.59,ID,1683398395
462,saint-philippe,-21.3585,55.7679,296.92,82,38,4.99,RE,1683398395
463,gangolli,13.65,74.6667,300.89,73,40,2.54,IN,1683398395
464,vorkuta,67.5,64.0,260.71,97,100,2.74,RU,1683398396
465,punta arenas,-53.15,-70.9167,282.21,61,20,8.75,CL,1683398396
466,tateyama,34.9833,139.8667,293.26,89,100,12.7,JP,1683398396
467,el bolson,-41.9667,-71.5167,289.69,60,8,1.96,AR,1683398396
468,labytnangi,66.6572,66.4183,265.1,92,94,4.62,RU,1683398397
469,lucapa,-8.4192,20.7447,297.34,64,99,1.0,AO,1683398397
470,conde,-7.2597,-34.9075,302.85,58,20,6.17,BR,1683398397
471,idri,27.5,13.2667,298.16,14,1,2.6,LY,1683398397
472,kaihua,23.3687,104.28,295.06,52,0,0.6,CN,1683398397
473,shahrud,36.4182,54.9763,288.66,34,0,2.22,IR,1683398398
474,carbonear,47.7332,-53.2148,278.38,86,100,5.15,CA,1683398398
475,gadzhiyevo,69.2551,33.3362,270.47,94,33,2.05,RU,1683398398
476,ljusdal,61.8288,16.0913,277.85,62,98,1.03,SE,1683398398
477,sevnica,46.0078,15.3156,293.81,83,100,1.11,SI,1683398398
478,port pirie,-33.1833,138.0167,282.93,68,10,2.46,AU,1683398279
479,kudahuvadhoo,2.6708,72.8944,301.76,69,100,7.01,MV,1683398399
480,kzyltu,53.6364,72.3414,290.52,21,3,2.78,KZ,1683398399
481,dolbeau-mistassini,48.8763,-72.212,294.51,33,86,6.37,CA,1683398399
482,heihe,50.2441,127.4902,278.47,38,12,2.04,CN,1683398400
483,igarka,67.4667,86.5833,263.06,89,43,2.89,RU,1683398400
484,inari,68.906,27.0288,278.26,93,8,1.98,FI,1683398400
485,dazkiri,37.9186,29.8606,284.05,87,100,1.12,TR,1683398400
486,axim,4.8699,-2.2405,299.67,83,100,1.05,GH,1683398401
487,gaiman,-43.2897,-65.4929,296.59,25,2,5.86,AR,1683398401
488,qamdo,31.1667,97.2333,272.36,74,2,2.39,CN,1683398401
489,hotan,37.0997,79.9269,284.98,20,100,5.99,CN,1683398401
490,kirchzarten,47.9667,7.95,290.91,78,100,1.54,DE,1683398402
491,chul'man,56.8479,124.9104,268.06,97,50,1.56,RU,1683398402
492,kasongo,-4.45,26.6667,295.39,92,17,1.68,CD,1683398402
493,bhisho,-32.8472,27.4422,289.5,93,88,1.77,ZA,1683398403
494,ciudad lazaro cardenas,17.9583,-102.2,304.49,54,5,5.65,MX,1683398403
495,tabou,4.423,-7.3528,300.26,82,29,4.04,CI,1683398403
496,mawlamyinegyunn,16.3833,95.2667,302.02,75,29,5.14,MM,1683398403
497,novyy urengoy,66.0833,76.6333,264.39,97,100,2.23,RU,1683398404
498,azul,-36.777,-59.8585,286.85,97,100,4.46,AR,1683398259
499,gizo,-8.103,156.8419,301.03,78,94,2.15,SB,1683398404
500,numan,9.4667,12.0333,306.78,30,100,1.95,NG,1683398405
501,pudozh,61.8099,36.5345,271.65,81,81,1.87,RU,1683398405
502,antigonish,45.6169,-61.9986,279.9,65,6,4.47,CA,1683398405
503,trincomalee,8.5711,81.2335,299.89,82,100,5.03,LK,1683398406
504,karratha,-20.7377,116.8463,297.29,30,100,5.64,AU,1683398406
505,vilyuysk,63.7553,121.6247,273.87,94,100,5.43,RU,1683398406
506,zhabinka,52.1984,24.0115,284.13,40,40,5.0,BY,1683398406
507,lata,40.1629,-8.3327,293.1,79,55,3.32,PT,1683398407
508,al wajh,26.2455,36.4525,300.12,32,0,3.09,SA,1683398407
509,okha,53.5739,142.9478,271.28,89,62,3.54,RU,1683398407
510,brisas de zicatela,15.8369,-97.0419,305.44,62,0,5.14,MX,1683398407
511,mogok,22.9167,96.5,295.29,52,8,0.86,MM,1683398408
512,salavan,15.7167,106.4167,299.87,69,71,1.43,LA,1683398408
513,marsh harbour,26.5412,-77.0636,297.66,74,34,7.82,BS,1683398408
514,zheleznogorsk-ilimskiy,56.5768,104.1217,271.48,99,29,0.94,RU,1683398118
515,kuusamo,65.9667,29.1833,277.17,41,0,1.54,FI,1683398409
516,svobodnyy,51.4,128.1333,280.59,42,1,2.88,RU,1683398409
517,wau,7.7029,27.9953,303.48,44,90,2.36,SS,1683398409
518,erenhot,43.6475,111.9767,282.01,31,0,3.7,CN,1683398409
519,bowen,-20.0167,148.2333,294.29,76,5,3.78,AU,1683398410
520,yilan,24.757,121.753,299.07,92,100,1.08,TW,1683398410
521,gerolzhofen,49.9,10.35,290.68,71,93,1.27,DE,1683398410
522,pitkyaranta,61.5734,31.4792,273.8,79,40,2.73,RU,1683398410
523,selkirk,50.1436,-96.8845,288.23,55,100,4.91,CA,1683398410
524,shagonar,51.5333,92.8,279.82,45,85,0.53,RU,1683398411
525,lensk,60.7253,114.9278,274.38,89,100,5.59,RU,1683398411
526,pokhara,28.2333,83.9833,294.19,55,38,2.2,NP,1683398411
527,callao,-12.0667,-77.15,298.31,69,75,5.66,PE,1683398411
528,es castell,39.8795,4.2854,292.53,77,0,4.12,ES,1683398412
529,starodub,52.5844,32.7633,274.89,60,17,2.91,RU,1683398412
530,san patricio,28.017,-97.5169,304.07,62,100,8.51,US,1683398412
531,qarah zia' od din,38.8915,45.0255,286.63,56,100,2.36,IR,1683398413
532,sao jose da coroa grande,-8.8978,-35.1478,300.71,68,0,2.97,BR,1683398413
533,guadalupe y calvo,26.1,-106.9667,295.68,14,49,6.63,MX,1683398413
534,shingu,33.7333,135.9833,293.11,97,100,3.87,JP,1683398413
535,chany,55.3121,76.7647,288.52,29,28,1.41,RU,1683398414
536,malanje,-9.5402,16.341,293.33,81,3,0.84,AO,1683398414
537,tommot,58.9564,126.2925,272.53,94,99,1.42,RU,1683398414
538,freeport,40.6576,-73.5832,296.47,37,20,5.14,US,1683398414
539,margate,51.3813,1.3862,287.98,83,100,2.68,GB,1683398415
540,ephrata,40.1798,-76.1788,295.3,44,20,3.09,US,1683398314
541,mitsamiouli,-11.3847,43.2844,300.27,72,1,2.39,KM,1683398415
542,khamis mushait,18.3064,42.7292,295.73,43,20,5.14,SA,1683398371
543,anloga,5.7947,0.8973,302.47,73,99,4.92,GH,1683398415
544,leava,-14.3,-178.1667,301.15,76,16,4.87,WF,1683398416
545,tortoli,39.9256,9.6572,291.05,88,20,4.12,IT,1683398416
546,zhangjiakou shi xuanhua qu,40.6103,115.0447,285.3,28,9,2.04,CN,1683398416
547,sassandra,4.95,-6.0833,300.28,82,10,4.15,CI,1683398416
548,vila franca do campo,37.7167,-25.4333,291.38,87,99,5.44,PT,1683398417
549,tazacorte,28.629,-17.9293,296.01,79,20,8.75,ES,1683398417
550,valdivia,-39.8142,-73.2459,290.2,60,6,0.89,CL,1683398417
551,gornozavodsk,58.3758,58.3211,283.37,72,95,3.39,RU,1683398288
552,morales,2.757,-76.6172,297.01,66,99,1.22,CO,1683398418
553,ardon,43.17,44.29,288.7,83,52,1.09,RU,1683398418
554,sinabang,2.4803,96.3801,299.05,87,100,8.48,ID,1683398418
555,kitimat,54.0524,-128.6534,284.36,67,100,1.06,CA,1683398418
556,constitucion,-35.3333,-72.4167,288.89,72,6,3.31,CL,1683398419
557,main beach,-27.9788,153.4266,289.23,89,98,2.62,AU,1683398419
558,plettenberg bay,-34.0527,23.3716,288.35,83,0,2.94,ZA,1683398419
559,beloyarskiy,63.7119,66.6722,274.59,100,100,1.91,RU,1683398419
560,kovel,51.2153,24.7087,279.75,82,100,6.58,UA,1683398420
561,arkhangel'sk,64.5401,40.5433,270.71,83,87,2.61,RU,1683398420
562,nemuro,43.3236,145.575,275.73,80,100,3.0,JP,1683398420
563,oyama,36.3,139.8,294.32,70,100,1.97,JP,1683398420
564,anar darah,32.7587,61.654,294.23,18,0,1.55,AF,1683398421
565,malax,62.9423,21.5731,278.14,47,0,4.12,FI,1683398421
566,medina,24.4686,39.6142,307.39,7,0,6.17,SA,1683398386
567,ekibastuz,51.6667,75.3667,289.3,24,10,2.43,KZ,1683398421
568,tralee,52.2704,-9.7026,285.99,81,77,2.75,IE,1683398422
569,yaren,-0.5472,166.916,301.84,74,22,5.9,NR,1683398422
570,rudbar,30.15,62.6,298.68,11,0,2.57,AF,1683398422
571,aral,40.5156,81.2636,283.2,23,80,4.53,CN,1683398422
572,zhigalovo,54.8097,105.1578,279.76,96,100,2.8,RU,1683398422
573,tomakomai,42.6369,141.6033,279.23,100,75,1.03,JP,1683398423
574,church hill,36.5223,-82.7135,298.75,43,0,2.96,US,1683398423
575,sebastopol,44.6,33.5333,288.71,70,100,8.45,UA,1683398423
576,salinopolis,-0.6136,-47.3561,301.53,78,71,4.73,BR,1683398423
577,santa terezinha,-29.9002,-50.0904,295.78,91,100,3.54,BR,1683398424
578,afaahiti,-17.75,-149.2833,300.08,80,66,8.69,PF,1683398424
579,valparaiso,-33.0393,-71.6273,290.37,75,75,3.6,CL,1683398424
580,annau,37.8876,58.516,291.87,59,20,2.06,TM,1683398424
581,alaghsas,17.0187,8.0168,311.09,14,0,5.14,NE,1683398424
582,siwa oasis,29.2041,25.5195,297.25,33,65,2.13,EG,1683398425
583,uitenhage,-33.7576,25.3971,290.92,92,17,3.03,ZA,1683398425
584,kabwe,-14.4469,28.4464,288.39,52,5,2.43,ZM,1683398425
585,tutoia,-2.7619,-42.2744,302.53,68,15,4.18,BR,1683398425
586,thunder bay,48.4001,-89.3168,279.14,93,100,5.66,CA,1683398152
587,bonthe,7.5264,-12.505,301.57,75,100,4.73,SL,1683398426
588,mhamid,29.82,-5.72,306.15,11,100,4.82,MA,1683398426
589,glace bay,46.1969,-59.957,279.7,75,75,13.38,CA,1683398333
590,timmins,48.4669,-81.3331,292.05,32,75,2.57,CA,1683398143
591,saint-pierre,-21.3393,55.4781,297.35,83,75,4.12,RE,1683398185
592,popondetta,-8.7537,148.2534,295.92,96,9,1.25,PG,1683398427
593,menongue,-14.6585,17.691,291.4,44,10,1.87,AO,1683398427
